~VERSION INFORMATION
VERS.                  2.0 : CWLS LOG ASCII STANDARD VERSION 2.0
WRAP.                  NO  : DATA IS NOT WRAPPED
~Well Information Section
#MNEM.UNIT          VALUE/NAME                 DESCRIPTION
#----------------------------------------------------------------------
STRT.m                        0 : START DEPTH
STOP.m                    10000 : STOP DEPTH
STEP.m                      0.5 : STEP
NULL.                -999.25 : NULL VALUE
COMP.                                             : COMPANY
WELL.    00bz212-test-1125                        : WELL
FLD .                                             : FIELD
LOC .           436492.3,       4316416.2         : LOCATION
CNTY.                                             : COUNTY
STAT.                                             : STATE
CTRY.                                             : COUNTRY
SRVC.    Fugro-Jason                              : SERVICE
DATE.                                             : DATE
API .                                             : API
~Curve Information Section
#MNEM.UNIT          API CODE                   DESCRIPTION
#----------------------------------------------------------------------
DEPTH.m                          : * MD (TRACK/INDEX)
TIME .s                          : TIME 
VS   .m/s                        : S-VELOCITY
PHIE .V/V                        : POROSITY EFFECTIVE
VP   .m/s                        : P-VELOCITY
RHOB .kg/m^3                     : DENSITY
~Parameter Information Section
#MNEM.UNIT          API CODE                   DESCRIPTION
#----------------------------------------------------------------------
XCRD .m                  436492.300          : WELL POSITION X-COORD
YCRD .m                 4316416.200          : WELL POSITION Y-COORD
DATUM.m                       0.000          : WELL DATUM
~Other Information Section
#----------------------------------------------------------------------
# Data exported from JGW, (C) Fugro-Jason, 2011
# Input file: 00bz212-test-1125.wll
#----------------------------------------------------------------------
# JGW header
# Well imported from las file:bh/well_log/BZ2-1/bz2-1-2_wire.las
# -----------------------------------------------------
# Original header from ASCII file
#     ~Version Information Block
#     VERS .                 2.00:  CWLS LOG ASCII STANDARD - VERSION 2.00
#     WRAP .                   NO:  One line per depth step
#     ~Well Information Block
#     #MNEM.UNIT        Data Type   Information
#     #---------- ----------------  -----------
#     STRT .M               427.4:  START DEPTH
#     STOP .M              3910.4:  STOP DEPTH
#     STEP .M                 0.1:  STEP
#     NULL .              -999.25:  NULL VALUE
#     COMP .                     :  COMPANY
#     WELL .              BZ2-1-2:  WELL
#     FLD  .                     :  FIELD
#     LOC  .                     :  LOCATION
#     PROV .                     :  PROVINCE
#     UWI  .                     :  UNIQUE WELL ID
#     SRVC .                     :  SERVICE COMPANY
#     DATE .                     :  LOG DATE
#     ~Curve Information Block
#     #MNEM.UNIT         API CODE   Curve Description
#     #---------- ----------------  -----------------
#     DEPTH.M                    :  
#     CAL  .IN                   :  Merged ALL.CAL_1 and WIRE.CAL_4 at 3707.83
#     CNCF .V/V                  :  Merged WIRE.CNCF_4 and RUN5.CNCF_1 at 3702.75
#     DT   .US/F                 :  Merged ALL.DT_1 and WIRE.DT_4 at 3703.89
#     GR   .GAPI                 :  Merged ALL.GR_1 and WIRE.GR_4 at 3692.27
#     RD   .OHMM                 :  Merged ALL.RD_1 and WIRE.RD_4 at 1507.87
#     RMLL .OHMM                 :  Merged ALL.RMLL_1 and WIRE.RMLL_4 at 1511.68
#     RS   .OHMM                 :  Merged ALL.RS_1 and WIRE.RS_4 at 1508.12
#     SPBD .MV                   :  Merged ALL.SPBD_1 and WIRE.SP_4 at 3680.20
#     ZDEN .G/C3                 :  Merged WIRE.ZDEN_4 and RUN5.ZDEN_1 at 3703.01
#     ~Parameter Information Block
#     #MNEM.UNIT            Value   Description
# -----------------------------------------------------
# 
#----------------------------------------------------------------------
~A DEPTH        TIME           VS             PHIE           VP             RHOB           
2948.5000      2.3507482      2304.6696      0.16150195     3886.5454      2346.7784      
2949.0000      2.3510673      2423.2863      0.18377998     3954.8755      2326.738       
2949.5000      2.3513864      2296.1304      0.14417976     3843.7713      2370.2773      
2950.0000      2.3517056      2240.6822      0.14801983     3768.0247      2362.1839      
2950.5000      2.3519648      2320.6517      0.19287932     3807.7049      2309.5397      
2951.0000      2.3522239      2115.4547      0.25386157     3414.2605      2210.0479      
2951.5000      2.352483       2148.9434      0.23336026     3469.023       2239.4701      
2952.0000      2.3527421      2270.4075      0.16673755     3769.7773      2339.4208      
2952.5000      2.3530012      2298.3189      0.20152017     3708.2466      2291.0646      
2953.0000      2.3532604      2110.7565      0.24176065     3384.1566      2223.0189      
2953.5000      2.3535195      2135.0556      0.2339606      3424.3262      2235.0393      
2954.0000      2.3537403      2233.2063      0.19421909     3629.7942      2298.1469      
2954.5000      2.3539526      2155.6166      0.19422004     3533.8573      2295.7359      
2955.0000      2.3541649      2193.1124      0.18843982     3620.1938      2308.5374      
2955.5000      2.3543773      2682.8077      0.11992043     4384.5926      2422.9592      
2956.0000      2.3545896      2652.4217      0.047938818    4521.1987      2499.4955      
2956.5000      2.3548019      2385.0057      0.10695957     4045.0211      2416.7016      
2957.0000      2.3550401      2393.7477      0.21522078     3852.4794      2280.0697      
2957.5000      2.355301       2448.8319      0.22525993     3869.4636      2259.9493      
2958.0000      2.355562       2365.7433      0.21451968     3770.0031      2273.8299      
2958.5000      2.355823       2481.4604      0.20315991     3946.8693      2295.9355      
2959.0000      2.356084       2487.3388      0.20424087     3953.5562      2295.4114      
2959.5000      2.356345       2770.9606      0.18213933     4418.0871      2327.3717      
2960.0000      2.356606       2773.2855      0.17446018     4434.3436      2339.5387      
2960.5000      2.3568669      2705.509       0.16197957     4362.7229      2353.7433      
2961.0000      2.3571279      2709.5987      0.15856045     4371.7992      2359.8528      
2961.5000      2.3573889      2718.779       0.12949917     4410.9776      2399.037       
2962.0000      2.3576499      2664.8323      0.14129941     4332.0862      2379.923       
2962.5000      2.3579109      2779.321       0.16366106     4455.8521      2357.5279      
2963.0000      2.3581719      2752.3892      0.097158325    4491.5987      2443.3326      
2963.5000      2.3584328      2846.1759      0.11777895     4582.5537      2422.8304      
2964.0000      2.3586938      2690.2008      0.20398323     4306.8348      2294.2214      
2964.5000      2.3589548      2853.1062      0.16775872     4541.8336      2351.538       
2965.0000      2.3592158      2595.2305      0.17760093     4204.9156      2326.3072      
2965.5000      2.3594768      2575.7824      0.16213945     4198.1995      2346.0321      
2966.0000      2.3597378      2702.2519      0.15222056     4365.7142      2368.1601      
2966.5000      2.3599987      2742.0328      0.11337844     4457.4942      2421.2769      
2967.0000      2.3602597      2721.4118      0.11248232     4437.2442      2424.1066      
2967.5000      2.3605207      2668.241       0.06017915     4452.6874      2485.6253      
2968.0000      2.3607817      2594.7959      0.061659399    4365.6689      2478.6297      
2968.5000      2.3610427      2632.3921      0.098640723    4347.0245      2435.411       
2969.0000      2.3613037      2543.2534      0.10025952     4220.0672      2432.4753      
2969.5000      2.3615646      2504.2133      0.078480882    4202.0765      2462.4932      
2970.0000      2.3618256      2435.5633      0.058660158    4171.7496      2478.2774      
2970.5000      2.3620866      2455.0193      0.048719263    4225.9609      2489.9317      
2971.0000      2.3623476      2539.1126      0.038420483    4356.4673      2506.6198      
2971.5000      2.3626086      2577.9231      0.023139917    4454.0766      2524.2821      
2972.0000      2.3628696      2508.4838      0.035878417    4329.187       2505.2988      
2972.5000      2.3631305      2459.5447      0.097161962    4107.0758      2440.5873      
2973.0000      2.3633915      2329.4822      0.14007807     3852.3275      2377.8465      
2973.5000      2.3636525      1499.677       0.24674085     2640.7611      2221.6855      
2974.0000      2.3639135      1644.2833      0.26130032     2778.2026      2196.0069      
2974.5000      2.3641745      1822.0881      0.23940042     3000.8637      2232.8985      
2975.0000      2.3644354      1898.9486      0.20851892     3136.8589      2285.1625      
2975.5000      2.3646844      1649.5362      0.19550202     2981.7598      2306.5317      
2976.0000      2.3649334      2633.1136      0.11335981     4284.4172      2429.4607      
2976.5000      2.3651824      2775.5799      0.11520037     4456.6939      2435.6297      
2977.0000      2.3654314      2552.2616      0.10275967     4208.7344      2437.7528      
2977.5000      2.3656803      2590.1463      0.076219629    4307.1343      2470.5807      
2978.0000      2.3659293      2585.8049      0.086779591    4276.4882      2457.8289      
2978.5000      2.3661783      2356.2595      0.14762073     3886.0729      2388.3932      
2979.0000      2.3664273      1669.8198      0.17249932     3079.1824      2347.1294      
2979.5000      2.3666763      1263.7292      0.16638035     2700.3492      2345.9728      
2980.0000      2.3669253      1184.7341      0.1768009      2611.1708      2330.3239      
2980.5000      2.3671743      1426.718       0.17870027     2792.8596      2332.6798      
2981.0000      2.3674232      1883.6525      0.15442009     3363.5463      2367.2942      
2981.5000      2.3676722      2462.2096      0.13348057     4040.6888      2396.2         
2982.0000      2.3679212      2452.1328      0.14042065     4018.7648      2387.5808      
2982.5000      2.3681702      2447.8719      0.1292605      4030.7127      2400.8327      
2983.0000      2.3684192      2521.882       0.10344075     4166.368       2435.9066      
2983.5000      2.3686682      2526.7082      0.0876386      4203.6606      2453.112       
2984.0000      2.3689172      2599.0446      0.1130603      4244.0426      2429.3803      
2984.5000      2.3691662      2502.192       0.11748066     4116.4076      2418.3758      
2985.0000      2.3694151      2454.4912      0.093659399    4105.9778      2442.3344      
2985.5000      2.3696641      2470.7349      0.080199829    4155.3212      2458.318       
2986.0000      2.3699131      2434.2725      0.074840698    4128.3104      2461.356       
2986.5000      2.3701621      2447.6825      0.050459057    4210.8546      2487.4074      
2987.0000      2.3704111      2500.8758      0.046280616    4288.9204      2496.4105      
2988.5000      2.371158       2632.4716      0.029480273    4496.9835      2523.1468      
2989.0000      2.371407       2663.1406      0.033438086    4516.6127      2520.815       
2989.5000      2.371656       2722.423       0.02529729     4611.3986      2532.9408      
2990.0000      2.371905       2583.1005      0.040322461    4402.8988      2508.5865      
2990.5000      2.372154       2447.188       0.016757911    4334.9735      2520.4559      
2991.5000      2.372652       2200.6588      0.084041111    3818.7323      2425.9054      
2992.0000      2.3729009      1818.681       0.24606306     2908.1174      2201.3566      
2992.5000      2.3731499      1679.0889      0.26460006     2694.9272      2164.4844      
2993.0000      2.3733989      1712.7491      0.25427966     2748.5835      2182.7031      
2993.5000      2.3736479      1707.8979      0.25392039     2742.363       2183.918       
