~VERSION INFORMATION
VERS.                  2.0 : CWLS LOG ASCII STANDARD VERSION 2.0
WRAP.                  NO  : DATA IS NOT WRAPPED
~Well Information Section
#MNEM.UNIT          VALUE/NAME                 DESCRIPTION
#----------------------------------------------------------------------
STRT.m                        0 : START DEPTH
STOP.m                    10000 : STOP DEPTH
STEP.m                      0.5 : STEP
NULL.                -999.25 : NULL VALUE
COMP.                                             : COMPANY
WELL.    00bz212-test-1125                        : WELL
FLD .                                             : FIELD
LOC .           436492.3,       4316416.2         : LOCATION
CNTY.                                             : COUNTY
STAT.                                             : STATE
CTRY.                                             : COUNTRY
SRVC.    Fugro-Jason                              : SERVICE
DATE.                                             : DATE
API .                                             : API
~Curve Information Section
#MNEM.UNIT          API CODE                   DESCRIPTION
#----------------------------------------------------------------------
DEPTH.m                          : * MD (TRACK/INDEX)
TIME .s                          : TIME 
VS   .m/s                        : S-VELOCITY
PHIE .V/V                        : POROSITY EFFECTIVE
VP   .m/s                        : P-VELOCITY
RHOB .kg/m^3                     : DENSITY
~Parameter Information Section
#MNEM.UNIT          API CODE                   DESCRIPTION
#----------------------------------------------------------------------
XCRD .m                  436492.300          : WELL POSITION X-COORD
YCRD .m                 4316416.200          : WELL POSITION Y-COORD
DATUM.m                       0.000          : WELL DATUM
~Other Information Section
#----------------------------------------------------------------------
# Data exported from JGW, (C) Fugro-Jason, 2011
# Input file: 00bz212-test-1125.wll
#----------------------------------------------------------------------
# JGW header
# Well imported from las file:bh/well_log/BZ2-1/bz2-1-2_wire.las
# -----------------------------------------------------
# Original header from ASCII file
#     ~Version Information Block
#     VERS .                 2.00:  CWLS LOG ASCII STANDARD - VERSION 2.00
#     WRAP .                   NO:  One line per depth step
#     ~Well Information Block
#     #MNEM.UNIT        Data Type   Information
#     #---------- ----------------  -----------
#     STRT .M               427.4:  START DEPTH
#     STOP .M              3910.4:  STOP DEPTH
#     STEP .M                 0.1:  STEP
#     NULL .              -999.25:  NULL VALUE
#     COMP .                     :  COMPANY
#     WELL .              BZ2-1-2:  WELL
#     FLD  .                     :  FIELD
#     LOC  .                     :  LOCATION
#     PROV .                     :  PROVINCE
#     UWI  .                     :  UNIQUE WELL ID
#     SRVC .                     :  SERVICE COMPANY
#     DATE .                     :  LOG DATE
#     ~Curve Information Block
#     #MNEM.UNIT         API CODE   Curve Description
#     #---------- ----------------  -----------------
#     DEPTH.M                    :  
#     CAL  .IN                   :  Merged ALL.CAL_1 and WIRE.CAL_4 at 3707.83
#     CNCF .V/V                  :  Merged WIRE.CNCF_4 and RUN5.CNCF_1 at 3702.75
#     DT   .US/F                 :  Merged ALL.DT_1 and WIRE.DT_4 at 3703.89
#     GR   .GAPI                 :  Merged ALL.GR_1 and WIRE.GR_4 at 3692.27
#     RD   .OHMM                 :  Merged ALL.RD_1 and WIRE.RD_4 at 1507.87
#     RMLL .OHMM                 :  Merged ALL.RMLL_1 and WIRE.RMLL_4 at 1511.68
#     RS   .OHMM                 :  Merged ALL.RS_1 and WIRE.RS_4 at 1508.12
#     SPBD .MV                   :  Merged ALL.SPBD_1 and WIRE.SP_4 at 3680.20
#     ZDEN .G/C3                 :  Merged WIRE.ZDEN_4 and RUN5.ZDEN_1 at 3703.01
#     ~Parameter Information Block
#     #MNEM.UNIT            Value   Description
# -----------------------------------------------------
# 
#----------------------------------------------------------------------
~A DEPTH        TIME           VS             PHIE           VP             RHOB           
# ...
3086.5000      2.4251479      2344.6048      0.033459595    4235.7023      2516.1918      
3087.0000      2.4254487      2387.3143      0.024420044    4236.6836      2508.7581      
3087.5000      2.4257496      2423.482       0.03573977     4232.5847      2499.7663      
3088.0000      2.4260504      2395.2999      0.070920754    4091.7144      2463.1595      
3088.5000      2.4263513      2468.4596      0.080379663    4151.6369      2457.9078      
3089.0000      2.4266521      2458.2675      0.098940039    4098.2348      2436.7743      
3089.5000      2.4269529      2423.6309      0.11449998     4025.1752      2417.0597      
3090.0000      2.4272538      2465.0418      0.11647937     4071.9992      2416.7795      
3090.5000      2.4275546      2553.2265      0.13128059     4146.4427      2404.1935      
3091.0000      2.4278555      2508.8728      0.1045197      4148.2492      2433.109       
3091.5000      2.4281563      2356.8577      0.086219483    4004.332       2443.5868      
3092.0000      2.4284572      2329.7708      0.082080199    3983.411       2446.3322      
3092.5000      2.428758       2329.8987      0.060621289    4045.1276      2468.1358      
3093.0000      2.4290588      2333.1888      0.029040356    4159.5004      2499.9511      
3093.5000      2.4294175      2361.6235      0.017000562    4240.7159      2514.3926      
3095.0000      2.4305542      2395.4112      0.029399707    4227.3485      2504.4226      
3095.5000      2.4309331      2445.1884      0.04737981     4218.9788      2490.5292      
3096.0000      2.4313121      2461.9915      0.06106052     4196.0299      2477.8847      
3096.5000      2.431691       2473.6716      0.089859837    4137.7264      2447.3628      
3097.0000      2.4320699      2412.4095      0.1275813      3989.8877      2401.8518      
3097.5000      2.4324488      2380.0626      0.089438818    4024.8279      2441.0866      
3098.0000      2.4328277      2478.4342      0.076100512    4176.1776      2463.9871      
3098.5000      2.4332066      2504.3835      0.051017749    4270.3461      2489.3422      
3099.0000      2.4335855      2442.5812      0.13116318     4029.1203      2400.7003      
3099.5000      2.4339645      2463.0107      0.079220434    4156.0132      2458.4522      
3100.5000      2.4347178      2465.5852      0.033259912    4292.8178      2505.8266      
3101.0000      2.4350927      2226.5892      0.069080519    3901.6899      2452.5775      
3101.5000      2.4354676      2298.7637      0.035098511    4099.1942      2491.1654      
3102.0000      2.4358425      2332.3339      0.028480152    4161.185       2500.7835      
3102.5000      2.4362174      2331.1757      0.029599951    4155.3816      2499.706       
3105.5000      2.4384668      2150.6826      0.06632229     3827.4792      2448.2741      
3106.0000      2.4388417      2123.0159      0.12678108     3635.2735      2382.5159      
3106.5000      2.4392166      2258.2997      0.12508        3801.9493      2393.8463      
3107.0000      2.4395915      2160.2287      0.088180029    3777.9342      2428.6224      
3107.5000      2.4399664      2335.3173      0.024358154    4172.3906      2502.685       
3108.0000      2.4403413      2375.9872      0.013338965    4271.2093      2518.8713      
3108.5000      2.4407162      2373.7165      0.0174000732   4292.9769      2524.148       
3109.0000      2.4410911      2339.9328      0.046701147    4103.9222      2482.021       
3109.5000      2.441466       2895.6244      0.12956077     4665.5908      2396.5348      
3110.0000      2.4418409      2747.9704      0.16512097     4391.444       2341.2562      
3110.5000      2.4422158      2651.1848      0.11675952     4370.8069      2400.4781      
3111.0000      2.4425907      2556.9671      0.11662014     4207.357       2393.867       
3111.5000      2.4429656      2188.1405      0.14492017     3656.3569      2339.6585      
3112.0000      2.4433406      2132.508       0.1277198      3681.325       2359.6218      
3112.5000      2.4437155      2197.4011      0.11626028     3800.6972      2377.6748      
3113.0000      2.4440904      2160.1078      0.11361904     3762.9104      2378.4044      
3113.5000      2.4444653      2193.9239      0.12012024     3786.6063      2373.0258      
3114.0000      2.4448402      2257.5468      0.10910015     3892.9098      2389.402       
3114.5000      2.4452151      2353.2704      0.10869944     4012.0558      2394.8183      
3115.0000      2.44559        2425.7672      0.12698064     4060.5093      2378.4344      
3115.5000      2.4459649      2465.5223      0.11257954     4140.9904      2396.7234      
3116.0000      2.4463398      2473.2388      0.10982009     4158.3181      2400.8829      
3116.5000      2.4467147      2425.0001      0.10277988     4115.8687      2406.3391      
3117.0000      2.4470896      2329.4605      0.093979884    4024.0375      2410.9012      
3117.5000      2.4474645      2327.2291      0.090339992    4032.7159      2415.0586      
3118.0000      2.4478394      2343.5674      0.094619043    4038.2909      2410.7221      
3118.5000      2.4482143      2245.0054      0.11662063     3858.6995      2380.4609      
3119.0000      2.4485892      2227.6966      0.1099196      3853.5807      2386.4514      
3119.5000      2.4489641      2320.7111      0.11543989     3953.9364      2385.5203      
3120.0000      2.449339       2371.7971      0.12756043     3990.1072      2374.5018      
3120.5000      2.4497139      2364.7791      0.11263955     4015.3351      2391.1059      
3121.0000      2.4500888      2282.328       0.10334041     3940.4621      2397.9693      
3121.5000      2.4504637      2437.5314      0.060481445    4278.4923      2454.783       
3122.0000      2.4508386      2587.6688      0.029497901    4581.7928      2495.6465      
3122.5000      2.4512135      2290.2141      0.095821046    3977.9889      2408.8199      
3123.0000      2.4515884      2261.5732      0.10113975     3920.1416      2398.3917      
3123.5000      2.4519633      2298.9539      0.12798079     3898.0973      2369.8391      
3124.0000      2.4523382      2226.4228      0.12869968     3804.6917      2364.3547      
3124.5000      2.4527131      2218.763       0.13338035     3785.6584      2358.8962      
3125.0000      2.453088       2125.6742      0.1328398      3671.4922      2353.4271      
3125.5000      2.453475       2218.9045      0.14873999     3756.7065      2343.6315      
3126.0000      2.4538619      2238.0691      0.16564014     3743.3332      2333.6215      
3126.5000      2.4542488      2361.0365      0.17806025     3850.4144      2322.2751      
3127.0000      2.4546357      2302.2132      0.18551872     3733.8897      2306.2902      
3127.5000      2.4550226      2693.2596      0.20412134     4230.4634      2293.7414      
3128.0000      2.4554095      3118.5668      0.19679892     4796.5027      2304.8352      
3128.5000      2.4557964      2463.1442      0.2288         3835.2252      2238.4155      
3129.0000      2.4561832      1946.8423      0.23791946     3098.8569      2205.9224      
3129.5000      2.4565701      2142.9235      0.25396382     3370.2994      2192.8265      
3130.0000      2.456957       1851.3074      0.17249931     3130.3078      2301.7646      
3130.5000      2.4573439      1843.9711      0.14449954     3258.7881      2340.9459      
3131.0000      2.4577308      1839.117       0.16288079     3189.9112      2318.7617      
3131.5000      2.4581177      1858.9903      0.15673979     3260.1624      2328.9018      
3132.0000      2.4585046      1893.1495      0.14748042     3330.8492      2343.0146      
3132.5000      2.4588915      1982.8429      0.13825952     3450.9058      2359.3605      
3133.0000      2.4592784      2088.39        0.14925935     3530.248       2352.3772      
3133.5000      2.4596653      2152.4879      0.19162107     3490.0599      2297.7402      
3134.0000      2.4599837      2176.3608      0.21074014     3493.582       2271.699       
