~VERSION INFORMATION
VERS.                  2.0 : CWLS LOG ASCII STANDARD VERSION 2.0
WRAP.                  NO  : DATA IS NOT WRAPPED
~Well Information Section
#MNEM.UNIT          VALUE/NAME                 DESCRIPTION
#----------------------------------------------------------------------
STRT.m                        0 : START DEPTH
STOP.m                    10000 : STOP DEPTH
STEP.m                      0.5 : STEP
NULL.                -999.25 : NULL VALUE
COMP.                                             : COMPANY
WELL.    00bz212-test-1125                        : WELL
FLD .                                             : FIELD
LOC .           436492.3,       4316416.2         : LOCATION
CNTY.                                             : COUNTY
STAT.                                             : STATE
CTRY.                                             : COUNTRY
SRVC.    Fugro-Jason                              : SERVICE
DATE.                                             : DATE
API .                                             : API
~Curve Information Section
#MNEM.UNIT          API CODE                   DESCRIPTION
#----------------------------------------------------------------------
DEPTH.m                          : * MD (TRACK/INDEX)
TIME .s                          : TIME 
VS   .m/s                        : S-VELOCITY
PHIE .V/V                        : POROSITY EFFECTIVE
VP   .m/s                        : P-VELOCITY
RHOB .kg/m^3                     : DENSITY
~Parameter Information Section
#MNEM.UNIT          API CODE                   DESCRIPTION
#----------------------------------------------------------------------
XCRD .m                  436492.300          : WELL POSITION X-COORD
YCRD .m                 4316416.200          : WELL POSITION Y-COORD
DATUM.m                       0.000          : WELL DATUM
~Other Information Section
#----------------------------------------------------------------------
# Data exported from JGW, (C) Fugro-Jason, 2011
# Input file: 00bz212-test-1125.wll
#----------------------------------------------------------------------
# JGW header
# Well imported from las file:bh/well_log/BZ2-1/bz2-1-2_wire.las
# -----------------------------------------------------
# Original header from ASCII file
#     ~Version Information Block
#     VERS .                 2.00:  CWLS LOG ASCII STANDARD - VERSION 2.00
#     WRAP .                   NO:  One line per depth step
#     ~Well Information Block
#     #MNEM.UNIT        Data Type   Information
#     #---------- ----------------  -----------
#     STRT .M               427.4:  START DEPTH
#     STOP .M              3910.4:  STOP DEPTH
#     STEP .M                 0.1:  STEP
#     NULL .              -999.25:  NULL VALUE
#     COMP .                     :  COMPANY
#     WELL .              BZ2-1-2:  WELL
#     FLD  .                     :  FIELD
#     LOC  .                     :  LOCATION
#     PROV .                     :  PROVINCE
#     UWI  .                     :  UNIQUE WELL ID
#     SRVC .                     :  SERVICE COMPANY
#     DATE .                     :  LOG DATE
#     ~Curve Information Block
#     #MNEM.UNIT         API CODE   Curve Description
#     #---------- ----------------  -----------------
#     DEPTH.M                    :  
#     CAL  .IN                   :  Merged ALL.CAL_1 and WIRE.CAL_4 at 3707.83
#     CNCF .V/V                  :  Merged WIRE.CNCF_4 and RUN5.CNCF_1 at 3702.75
#     DT   .US/F                 :  Merged ALL.DT_1 and WIRE.DT_4 at 3703.89
#     GR   .GAPI                 :  Merged ALL.GR_1 and WIRE.GR_4 at 3692.27
#     RD   .OHMM                 :  Merged ALL.RD_1 and WIRE.RD_4 at 1507.87
#     RMLL .OHMM                 :  Merged ALL.RMLL_1 and WIRE.RMLL_4 at 1511.68
#     RS   .OHMM                 :  Merged ALL.RS_1 and WIRE.RS_4 at 1508.12
#     SPBD .MV                   :  Merged ALL.SPBD_1 and WIRE.SP_4 at 3680.20
#     ZDEN .G/C3                 :  Merged WIRE.ZDEN_4 and RUN5.ZDEN_1 at 3703.01
#     ~Parameter Information Block
#     #MNEM.UNIT            Value   Description
# -----------------------------------------------------
# 
#----------------------------------------------------------------------
~A DEPTH        TIME           VS             PHIE           VP             RHOB           
# ...
2994.0000      2.3738969      1788.026       0.23363958     2871.4459      2220.533       
2994.5000      2.3741459      1870.1953      0.23018061     2990.6582      2231.6922      
2995.0000      2.3743949      1860.031       0.21201977     2996.6123      2259.9657      
2995.5000      2.3746438      1970.3851      0.1919602      3179.7414      2299.689       
2996.0000      2.3748928      2056.246       0.16841975     3346.1002      2342.8111      
2996.5000      2.3751418      2018.7783      0.1707595      3290.8573      2336.4994      
2997.0000      2.3753908      2028.9318      0.20108076     3246.424       2288.3122      
2997.5000      2.3756398      2104.0932      0.19494016     3358.239       2301.6886      
2998.0000      2.3758888      2006.6304      0.18343989     3244.1849      2315.1971      
2998.5000      2.3761378      1961.3981      0.17985981     3191.236       2318.5501      
2999.0000      2.3763867      1821.1428      0.1892201      2983.1021      2294.958       
2999.5000      2.3766357      1762.12        0.1950998      2891.2334      2281.5862      
3000.0000      2.3768847      1831.7591      0.19007988     2994.8114      2294.1229      
3000.5000      2.3771337      1714.0916      0.18983965     2838.4973      2286.2732      
3001.0000      2.3773826      1778.0357      0.19219963     2918.1708      2287.0715      
3001.5000      2.3776316      1849.479       0.19392029     3011.2354      2289.3113      
3002.0000      2.3778806      1854.4136      0.19184009     3021.7931      2292.7751      
3002.5000      2.3781296      1835.1698      0.18834033     3003.3151      2297.1686      
3003.0000      2.3783786      1870.2053      0.17971982     3069.4168      2312.837       
3003.5000      2.3786276      1947.6002      0.18390007     3163.9952      2311.4319      
3004.0000      2.3788765      1909.8642      0.18151995     3118.6895      2312.892       
3004.5000      2.3791255      1879.2841      0.17071978     3106.1026      2327.9532      
3005.0000      2.3793745      1910.9218      0.16612012     3161.6269      2337.5435      
3005.5000      2.3796235      1851.5461      0.16476043     3090.3972      2335.8476      
3006.0000      2.3798725      1866.6572      0.1549594      3146.0647      2351.5872      
3006.5000      2.3800856      1812.6005      0.16179983     3050.4502      2337.2293      
3007.0000      2.3802014      1852.2292      0.15832029     3116.3046      2345.9571      
3007.5000      2.3803171      1910.7054      0.14311985     3260.5847      2373.3416      
3008.0000      2.3804328      1864.2261      0.15242122     3158.8296      2356.5879      
3008.5000      2.3805486      1818.6058      0.15597962     3083.9427      2346.549       
3009.0000      2.3806643      1862.7257      0.14226067     3205.4447      2369.3251      
3009.5000      2.3807801      2399.7168      0.034835254    4217.2723      2497.9247      
3010.0000      2.3808958      2257.4849      0.08454177     3901.6885      2435.8856      
3010.5000      2.3810446      2316.1681      0.13348108     3832.7498      2386.8721      
3011.0000      2.3812188      2430.7663      0.076659229    4118.9576      2459.2998      
3011.5000      2.3813931      2538.6381      0.022019287    4416.6005      2521.8406      
3012.5000      2.3817415      2397.1736      0.033399073    4295.775       2520.5289      
3013.0000      2.3819158      2435.1243      0.034579346    4333.208       2522.3769      
3013.5000      2.38209        2383.4964      0.039096729    4256.9244      2511.8981      
3014.0000      2.3822642      2529.9521      0.13898098     4080.193       2389.0205      
3014.5000      2.3824385      2361.8409      0.1347624      3878.1765      2383.799       
3019.0000      2.3840066      2146.5095      0.065969336    3832.9444      2447.0828      
3019.5000      2.3841808      2094.7317      0.085359033    3701.2561      2424.4503      
3020.0000      2.384355       2121.0114      0.092959572    3709.7365      2417.7607      
3020.5000      2.3845293      2128.7062      0.16484153     3475.0862      2327.2829      
3021.0000      2.3847382      1819.6613      0.18803828     2982.6394      2294.0469      
3021.5000      2.3850628      1932.4801      0.22518237     3085.0766      2245.4036      
3022.0000      2.3853874      2211.3041      0.17819873     3531.1517      2333.4514      
3022.5000      2.385712       2272.234       0.15981924     3651.7847      2368.4908      
3023.0000      2.3860366      2058.3064      0.18982024     3303.7403      2307.5791      
3023.5000      2.3863612      1827.2028      0.22590081     2935.4245      2236.048       
3024.0000      2.3866858      1861.3503      0.24076043     2969.5423      2213.5168      
3024.5000      2.3870104      1780.8174      0.23328035     2862.6975      2222.2178      
3025.0000      2.3873343      1727.4901      0.18985896     2859.7814      2286.0187      
3025.5000      2.3876549      1754.8299      0.18346042     2908.8539      2299.4816      
3026.0000      2.3879755      1776.4844      0.17568096     2963.8324      2313.8003      
3026.5000      2.3882961      2146.2779      0.12555984     3605.807       2414.5937      
3027.0000      2.3886167      2497.1279      0.093040869    4094.9245      2480.7921      
3027.5000      2.3889372      2513.648       0.075439355    4144.5453      2503.4423      
3028.0000      2.3892578      2159.53        0.10728108     3672.9617      2440.2585      
3028.5000      2.3895784      2166.011       0.072378954    3748.2584      2478.7783      
3029.0000      2.389899       2341.4648      0.089699171    3905.8784      2469.3934      
3029.5000      2.3902196      2008.078       0.19502178     3231.573       2300.0601      
3030.0000      2.3905402      1838.6352      0.20073967     2984.1597      2277.2437      
3030.5000      2.3908608      1882.1626      0.18256082     3094.1229      2310.1049      
3031.0000      2.3911814      1881.4988      0.13153972     3292.6656      2387.6063      
3031.5000      2.391502       1814.679       0.16199973     3076.6661      2336.7901      
3032.0000      2.3918225      1851.9872      0.19103953     3020.009       2293.5825      
3032.5000      2.3921431      1806.3415      0.20554104     2933.4006      2268.2857      
3033.0000      2.3924637      1695.2562      0.20005947     2791.4693      2268.5745      
3033.5000      2.3927843      1695.4101      0.2040206      2784.6883      2263.2081      
3034.0000      2.3931049      1685.3324      0.20217988     2774.8377      2265.2722      
3034.5000      2.3934255      2031.5207      0.16827908     3313.538       2339.6195      
3035.0000      2.3937461      1942.7085      0.22284233     3108.7672      2248.2553      
3035.5000      2.3940667      1713.1002      0.24499993     2757.4042      2198.3225      
3036.0000      2.3943873      1701.5626      0.2287802      2756.1228      2223.8016      
3036.5000      2.3947078      1721.8016      0.22626057     2786.7766      2228.8013      
3037.0000      2.3950284      1776.5449      0.23166186     2858.4262      2224.2165      
3037.5000      2.395349       1798.3869      0.20955991     2914.7844      2260.4353      
3038.0000      2.3956696      1912.2278      0.19312032     3098.4829      2294.4729      
3038.5000      2.3959902      2071.5667      0.17010027     3362.671       2341.3194      
3039.0000      2.3963108      2605.5889      0.14203964     4169.9947      2390.2063      
3039.5000      2.3966314      2482.5116      0.13178076     4062.1136      2399.3581      
3040.0000      2.396952       2328.2251      0.12023977     3897.0741      2403.7152      
3040.5000      2.3972726      2352.0196      0.10715955     3951.7403      2419.9752      
3041.0000      2.3975931      2388.5985      0.10072183     4013.0985      2431.6176      
3041.5000      2.3979137      2474.9947      0.05849978     4215.9881      2480.403       
3042.0000      2.3982343      2582.3123      0.041018311    4394.0255      2505.9796      
