~VERSION INFORMATION
VERS.                  2.0 : CWLS LOG ASCII STANDARD VERSION 2.0
WRAP.                  NO  : DATA IS NOT WRAPPED
~Well Information Section
#MNEM.UNIT          VALUE/NAME                 DESCRIPTION
#----------------------------------------------------------------------
STRT.m                        0 : START DEPTH
STOP.m                    10000 : STOP DEPTH
STEP.m                      0.5 : STEP
NULL.                -999.25 : NULL VALUE
COMP.                                             : COMPANY
WELL.    00bz212-test-1125                        : WELL
FLD .                                             : FIELD
LOC .           436492.3,       4316416.2         : LOCATION
CNTY.                                             : COUNTY
STAT.                                             : STATE
CTRY.                                             : COUNTRY
SRVC.    Fugro-Jason                              : SERVICE
DATE.                                             : DATE
API .                                             : API
~Curve Information Section
#MNEM.UNIT          API CODE                   DESCRIPTION
#----------------------------------------------------------------------
DEPTH.m                          : * MD (TRACK/INDEX)
TIME .s                          : TIME 
VS   .m/s                        : S-VELOCITY
PHIE .V/V                        : POROSITY EFFECTIVE
VP   .m/s                        : P-VELOCITY
RHOB .kg/m^3                     : DENSITY
~Parameter Information Section
#MNEM.UNIT          API CODE                   DESCRIPTION
#----------------------------------------------------------------------
XCRD .m                  436492.300          : WELL POSITION X-COORD
YCRD .m                 4316416.200          : WELL POSITION Y-COORD
DATUM.m                       0.000          : WELL DATUM
~Other Information Section
#----------------------------------------------------------------------
# Data exported from JGW, (C) Fugro-Jason, 2011
# Input file: 00bz212-test-1125.wll
#----------------------------------------------------------------------
# JGW header
# Well imported from las file:bh/well_log/BZ2-1/bz2-1-2_wire.las
# -----------------------------------------------------
# Original header from ASCII file
#     ~Version Information Block
#     VERS .                 2.00:  CWLS LOG ASCII STANDARD - VERSION 2.00
#     WRAP .                   NO:  One line per depth step
#     ~Well Information Block
#     #MNEM.UNIT        Data Type   Information
#     #---------- ----------------  -----------
#     STRT .M               427.4:  START DEPTH
#     STOP .M              3910.4:  STOP DEPTH
#     STEP .M                 0.1:  STEP
#     NULL .              -999.25:  NULL VALUE
#     COMP .                     :  COMPANY
#     WELL .              BZ2-1-2:  WELL
#     FLD  .                     :  FIELD
#     LOC  .                     :  LOCATION
#     PROV .                     :  PROVINCE
#     UWI  .                     :  UNIQUE WELL ID
#     SRVC .                     :  SERVICE COMPANY
#     DATE .                     :  LOG DATE
#     ~Curve Information Block
#     #MNEM.UNIT         API CODE   Curve Description
#     #---------- ----------------  -----------------
#     DEPTH.M                    :  
#     CAL  .IN                   :  Merged ALL.CAL_1 and WIRE.CAL_4 at 3707.83
#     CNCF .V/V                  :  Merged WIRE.CNCF_4 and RUN5.CNCF_1 at 3702.75
#     DT   .US/F                 :  Merged ALL.DT_1 and WIRE.DT_4 at 3703.89
#     GR   .GAPI                 :  Merged ALL.GR_1 and WIRE.GR_4 at 3692.27
#     RD   .OHMM                 :  Merged ALL.RD_1 and WIRE.RD_4 at 1507.87
#     RMLL .OHMM                 :  Merged ALL.RMLL_1 and WIRE.RMLL_4 at 1511.68
#     RS   .OHMM                 :  Merged ALL.RS_1 and WIRE.RS_4 at 1508.12
#     SPBD .MV                   :  Merged ALL.SPBD_1 and WIRE.SP_4 at 3680.20
#     ZDEN .G/C3                 :  Merged WIRE.ZDEN_4 and RUN5.ZDEN_1 at 3703.01
#     ~Parameter Information Block
#     #MNEM.UNIT            Value   Description
# -----------------------------------------------------
# 
#----------------------------------------------------------------------
~A DEPTH        TIME           VS             PHIE           VP             RHOB           
# ...
3134.5000      2.4602434      2020.8394      0.16791858     3399.3041      2321.8407      
3135.0000      2.460503       2071.2072      0.15139939     3499.1943      2347.8132      
3135.5000      2.4607627      2142.3806      0.17560105     3540.6778      2323.0337      
3136.0000      2.4610224      2193.3183      0.15480019     3667.0812      2353.7671      
3136.5000      2.4612821      2164.715       0.14256018     3660.7605      2367.7142      
3137.0000      2.4615418      2366.1793      0.091341213    4014.9663      2440.0677            
3138.0000      2.4620611      2312.0724      0.074761401    3986.656       2453.1551      
3138.5000      2.4623208      2072.0622      0.09082041     3662.7268      2417.7156      
3139.0000      2.4625805      2163.4129      0.060319922    3856.7054      2455.8337      
3139.5000      2.4628402      2331.5205      0.044499097    4097.0531      2483.911       
3140.0000      2.4630998      2342.6015      0.076521947    4016.8062      2454.4213      
3140.5000      2.4633595      2457.8443      0.033999097    4277.3216      2503.5379      
3141.0000      2.4636192      2375.7728      0.055180787    4116.9533      2477.2307      
3141.5000      2.4638789      2124.6658      0.086700706    3735.8139      2427.0031      
3142.0000      2.4641386      2168.142       0.058979346    3864.5373      2457.0366      
3142.5000      2.4643982      2217.5704      0.051278417    3946.4402      2468.5934      
3143.0000      2.4646579      2144.5701      0.073459571    3792.426       2440.7657      
3143.5000      2.4649176      2086.9139      0.091760425    3676.6579      2417.975       
3144.0000      2.4651773      2063.0901      0.097260888    3635.9537      2410.6133      
3144.5000      2.465437       2124.2579      0.06877959     3784.0262      2443.8877      
3145.0000      2.4656966      2209.6483      0.053522657    3933.0257      2466.4599      
3145.5000      2.4659563      2375.6921      0.011219629    4277.2859      2520.2792            
3146.5000      2.4664757      2370.7557      0.017160181    4248.6876      2514.6205      
3147.0000      2.4667354      2332.1331      0.029320312    4156.3772      2499.7969      
3147.5000      2.466995       2284.8726      0.038400537    4068.3018      2486.9493      
3148.0000      2.4672547      2261.3896      0.059240845    3971.2683      2464.5799      
3148.5000      2.4675144      2302.5608      0.060179492    4013.247       2466.5377      
3149.0000      2.4677741      2255.8583      0.063800367    3950.1794      2459.807       
3149.5000      2.4680338      2282.2572      0.041558129    4055.6839      2483.8009      
3150.0000      2.4682934      2340.1643      0.019536963    4206.5829      2509.8826      
3150.5000      2.468545       2257.8601      0.053041943    3995.2707      2469.3882      
3151.0000      2.4687967      2311.8672      0.10382124     3912.6411      2422.2802      
3151.5000      2.4690484      2376.1375      0.09308025     4011.6938      2437.7226      
3152.0000      2.4693001      2286.0316      0.064301001    3989.4974      2460.8233      
3152.5000      2.4695518      2349.5017      0.02460166     4193.4796      2505.5031     
3154.0000      2.4703068      2372.2785      0.018180079    4247.0243      2514.0086        
3155.5000      2.4710619      2256.5693      0.066881519    3952.1216      2459.0742      
3156.0000      2.4713135      2180.4051      0.086260913    3800.5321      2431.1885      
3156.5000      2.4715652      2282.3709      0.042956885    4049.4755      2480.3368      
3157.0000      2.4718169      2226.187       0.082622242    3872.4294      2439.0909      
3157.5000      2.4720686      2238.0877      0.096217944    3838.3081      2423.1328      
3158.0000      2.4723203      2166.741       0.15330173     3648.6457      2355.8801      
3158.5000      2.472572       2197.1799      0.15133985     3685.6867      2358.5619      
3159.0000      2.4728236      2166.3863      0.15926074     3637.8379      2347.9385      
3159.5000      2.4730753      2180.6419      0.15028003     3667.4002      2358.951       
3160.0000      2.473327       2226.2571      0.15116062     3716.5534      2360.856       
3160.5000      2.4735787      2190.5799      0.14780066     3683.4804      2363.318       
3161.0000      2.4738304      2214.541       0.10569966     3793.9338      2412.5204      
3161.5000      2.474082       2233.3227      0.099657959    3829.8628      2418.4323      
3162.0000      2.4743337      2208.0404      0.16612026     3668.6309      2341.6181      
3162.5000      2.4745854      2132.72        0.17970044     3512.9502      2323.0062      
3163.0000      2.4748371      2155.9875      0.16605986     3554.2411      2340.7739      
3163.5000      2.4750888      2117.4307      0.17578        3470.3175      2323.7998      
3164.0000      2.4753405      2090.5281      0.19424055     3403.435       2297.0975      
3164.5000      2.4755921      2061.5971      0.19821973     3355.1592      2288.575       
3165.0000      2.4758438      2575.2252      0.17534119     4036.0313      2344.4836      
3165.5000      2.4760955      2874.581       0.14283769     4429.0741      2396.8267      
3166.0000      2.4763472      2190.1328      0.22194187     3476.6439      2258.1266      
3166.5000      2.4765989      2153.2793      0.20080003     3462.823       2288.244       
3167.0000      2.4768506      2191.4723      0.17943984     3547.949       2321.9967      
3167.5000      2.4771022      2064.2201      0.17861948     3395.836       2316.6345      
3168.0000      2.4773539      2181.7657      0.18464065     3541.9947      2316.3217      
3168.5000      2.4776056      2263.7604      0.17199927     3654.8483      2335.3085      
3169.0000      2.4778573      2140.6924      0.21468056     3429.8668      2267.2922      
3169.5000      2.478109       2024.9791      0.24084084     3242.2193      2221.4401      
3170.0000      2.4783607      2296.1409      0.20199934     3626.799       2288.2323      
3170.5000      2.4786123      2184.6846      0.19104055     3507.3854      2302.2538      
3171.0000      2.478864       1994.5278      0.2022998      3256.276       2278.8837      
3171.5000      2.4791157      2081.9665      0.1890386      3387.1341      2300.606       
3172.0000      2.4793674      2078.559       0.20396147     3368.7         2283.0689      
3172.5000      2.4796191      2323.9157      0.17517937     3763.2186      2331.6939      
3173.0000      2.4798707      2365.5187      0.1488799      3895.7123      2371.6786      
3173.5000      2.4801224      2326.1687      0.11122143     3922.637       2411.9027      
3174.0000      2.4803741      2406.4007      0.022797266    4329.6366      2503.3286      
3178.0000      2.4824835      2367.2066      0.03638064     4228.6209      2487.2685      
3178.5000      2.4827512      2401.0846      0.079160619    4106.5353      2445.8265      
3179.0000      2.4830189      2407.7691      0.027875488    4317.1005      2499.2276    
