~VERSION INFORMATION
VERS.                  2.0 : CWLS LOG ASCII STANDARD VERSION 2.0
WRAP.                  NO  : DATA IS NOT WRAPPED
~Well Information Section
#MNEM.UNIT          VALUE/NAME                 DESCRIPTION
#----------------------------------------------------------------------
STRT.m                        0 : START DEPTH
STOP.m                    10000 : STOP DEPTH
STEP.m                      0.5 : STEP
NULL.                -999.25 : NULL VALUE
COMP.                                             : COMPANY
WELL.    00bz212-test-1125                        : WELL
FLD .                                             : FIELD
LOC .           436492.3,       4316416.2         : LOCATION
CNTY.                                             : COUNTY
STAT.                                             : STATE
CTRY.                                             : COUNTRY
SRVC.    Fugro-Jason                              : SERVICE
DATE.                                             : DATE
API .                                             : API
~Curve Information Section
#MNEM.UNIT          API CODE                   DESCRIPTION
#----------------------------------------------------------------------
DEPTH.m                          : * MD (TRACK/INDEX)
TIME .s                          : TIME 
VS   .m/s                        : S-VELOCITY
PHIE .V/V                        : POROSITY EFFECTIVE
VP   .m/s                        : P-VELOCITY
RHOB .kg/m^3                     : DENSITY
~Parameter Information Section
#MNEM.UNIT          API CODE                   DESCRIPTION
#----------------------------------------------------------------------
XCRD .m                  436492.300          : WELL POSITION X-COORD
YCRD .m                 4316416.200          : WELL POSITION Y-COORD
DATUM.m                       0.000          : WELL DATUM
~Other Information Section
#----------------------------------------------------------------------
# Data exported from JGW, (C) Fugro-Jason, 2011
# Input file: 00bz212-test-1125.wll
#----------------------------------------------------------------------
# JGW header
# Well imported from las file:bh/well_log/BZ2-1/bz2-1-2_wire.las
# -----------------------------------------------------
# Original header from ASCII file
#     ~Version Information Block
#     VERS .                 2.00:  CWLS LOG ASCII STANDARD - VERSION 2.00
#     WRAP .                   NO:  One line per depth step
#     ~Well Information Block
#     #MNEM.UNIT        Data Type   Information
#     #---------- ----------------  -----------
#     STRT .M               427.4:  START DEPTH
#     STOP .M              3910.4:  STOP DEPTH
#     STEP .M                 0.1:  STEP
#     NULL .              -999.25:  NULL VALUE
#     COMP .                     :  COMPANY
#     WELL .              BZ2-1-2:  WELL
#     FLD  .                     :  FIELD
#     LOC  .                     :  LOCATION
#     PROV .                     :  PROVINCE
#     UWI  .                     :  UNIQUE WELL ID
#     SRVC .                     :  SERVICE COMPANY
#     DATE .                     :  LOG DATE
#     ~Curve Information Block
#     #MNEM.UNIT         API CODE   Curve Description
#     #---------- ----------------  -----------------
#     DEPTH.M                    :  
#     CAL  .IN                   :  Merged ALL.CAL_1 and WIRE.CAL_4 at 3707.83
#     CNCF .V/V                  :  Merged WIRE.CNCF_4 and RUN5.CNCF_1 at 3702.75
#     DT   .US/F                 :  Merged ALL.DT_1 and WIRE.DT_4 at 3703.89
#     GR   .GAPI                 :  Merged ALL.GR_1 and WIRE.GR_4 at 3692.27
#     RD   .OHMM                 :  Merged ALL.RD_1 and WIRE.RD_4 at 1507.87
#     RMLL .OHMM                 :  Merged ALL.RMLL_1 and WIRE.RMLL_4 at 1511.68
#     RS   .OHMM                 :  Merged ALL.RS_1 and WIRE.RS_4 at 1508.12
#     SPBD .MV                   :  Merged ALL.SPBD_1 and WIRE.SP_4 at 3680.20
#     ZDEN .G/C3                 :  Merged WIRE.ZDEN_4 and RUN5.ZDEN_1 at 3703.01
#     ~Parameter Information Block
#     #MNEM.UNIT            Value   Description
# -----------------------------------------------------
# 
#----------------------------------------------------------------------
~A DEPTH        TIME           VS             PHIE           VP             RHOB           
# ...
3042.5000      2.3985549      2333.919       0.13228103     3835.7624      2385.328       
3043.0000      2.3988755      2035.891       0.19244023     3267.7202      2299.4093      
3043.5000      2.3991961      2166.3569      0.17051875     3486.4275      2340.518       
3044.0000      2.3995167      2005.4155      0.18522072     3239.3293      2309.4667      
3044.5000      2.3998373      1953.8176      0.16964014     3208.0268      2330.3703      
3045.0000      2.4001579      2014.2321      0.16651916     3300.5211      2339.169       
3045.5000      2.4004784      2396.62        0.14702007     3850.4618      2391.1581      
3046.0000      2.400799       2565.5243      0.12331834     4125.5706      2434.3744      
3046.5000      2.4011196      2184.0653      0.22340154     3438.7775      2254.3799      
3047.0000      2.4014402      1924.1842      0.25510112     3047.2578      2189.2761      
3047.5000      2.4017608      1820.116       0.23153933     2914.4989      2221.9603      
3048.0000      2.4020814      1882.8723      0.24177988     2995.6431      2208.9637      
3048.5000      2.402402       1813.6208      0.24397991     2895.5976      2202.01        
3049.0000      2.4027226      1759.6096      0.24643991     2817.3029      2194.7253      
3049.5000      2.4030432      1761.3726      0.25646001     2812.3882      2179.0863      
3050.0000      2.4033637      1793.6524      0.24012019     2870.1996      2207.324       
3050.5000      2.4036764      1846.2554      0.22506026     2958.1848      2234.6246      
3051.0000      2.403989       1905.0488      0.20740017     3062.8038      2266.8157      
3051.5000      2.4043015      2107.2458      0.18481975     3377.2873      2314.5539      
3052.0000      2.4046141      2241.4091      0.1725398      3583.0886      2341.5221      
3052.5000      2.4049267      2125.8813      0.18386018     3405.2611      2317.3505      
3053.0000      2.4052392      1992.1441      0.18917988     3211.9916      2301.1663      
3053.5000      2.4055518      2004.4449      0.1906802      3226.434       2299.5376      
3054.0000      2.4058644      1965.9141      0.19132051     3173.1679      2296.8506      
3054.5000      2.4061769      1985.9704      0.1673397      3257.8325      2336.3844      
3055.0000      2.4064895      2029.1172      0.1420595      3420.8952      2379.3749      
3055.5000      2.4068021      2217.1127      0.15007842     3632.0121      2376.6079      
3056.0000      2.4071003      2061.425       0.23422248     3256.8919      2230.5048      
3056.5000      2.4073932      1868.1344      0.23385976     2981.2409      2221.0534      
3057.0000      2.407686       2008.8284      0.22552021     3187.0241      2241.9881      
3057.5000      2.4079789      2270.624       0.19670137     3594.295       2304.2943      
3058.0000      2.4082717      2517.523       0.11225938     4090.2787      2448.4597      
3058.5000      2.4085646      2700.3356      0.11211794     4309.2253      2456.665       
3059.0000      2.4088574      2282.2156      0.19136267     3606.6279      2313.4149      
3059.5000      2.4091503      1876.4076      0.1645592      3132.8057      2332.3453      
3060.0000      2.4094431      1818.9332      0.13873989     3185.0989      2368.8034      
3060.5000      2.409736       2106.0611      0.11626008     3600.7489      2420.3873      
3061.0000      2.4100288      2303.672       0.095178833    3870.5073      2458.5189      
3061.5000      2.4103217      2101.174       0.11932112     3590.6506      2417.0204      
3062.0000      2.4106145      2326.1135      0.086599829    3942.9527      2456.2392      
3062.5000      2.4109074      3249.7765      0.065160132    5122.4827      2521.1065      
3063.0000      2.4112002      3071.5489      0.04487312     4964.6994      2533.1012      
3063.5000      2.4114931      2447.0091      0.06130039     4178.1255      2476.6488      
3064.0000      2.4117859      2450.3028      0.078520361    4136.1367      2459.0809      
3064.5000      2.4120788      2421.7914      0.072439966    4117.7514      2463.0465      
3065.0000      2.4123716      2361.2979      0.0598802      4082.1135      2471.4586      
3065.5000      2.4126645      2347.4339      0.06299995     4057.2744      2467.2926      
3066.0000      2.4129573      2361.8801      0.064418801    4068.5657      2466.6375      
3066.5000      2.4132502      2400.1777      0.069580688    4101.2577      2465.1193      
3067.0000      2.413543       2503.7933      0.044818872    4292.6526      2496.7948      
3067.5000      2.4138359      2509.9742      0.049940112    4285.544       2492.932       
3068.0000      2.4141287      2460.2881      0.056939747    4207.2473      2482.2903      
3068.5000      2.4144216      2566.3489      0.049219409    4352.8524      2497.5447      
3069.0000      2.4147144      2591.0968      0.045640039    4393.1744      2503.2972      
3069.5000      2.4150073      2522.7631      0.052659911    4292.2876      2491.157       
3070.0000      2.4153001      2495.294       0.051059766    4265.5671      2490.6984      
3070.5000      2.415593       2475.1546      0.030520214    4310.8302      2509.1929      
3071.0000      2.4158858      2435.9484      0.031920312    4262.4569      2505.1456      
3071.5000      2.4161787      2434.0431      0.035879835    4244.7044      2500.9         
3072.0000      2.4164715      2479.2155      0.039320362    4284.6885      2501.1033      
3072.5000      2.4167644      2537.3072      0.056620117    4298.6164      2488.0536      
3073.0000      2.4170572      2562.9543      0.068259789    4295.539       2477.8202      
3073.5000      2.4173501      2520.8843      0.058499805    4272.8402      2484.899       
3074.0000      2.4176429      2483.0498      0.036259961    4299.5171      2504.1733      
3074.5000      2.4179358      2565.8478      0.030160107    4415.8296      2516.752       
3075.0000      2.4182286      2582.7676      0.035660034    4415.6262      2512.4959      
3075.5000      2.4185293      2626.0326      0.064879589    4383.5826      2485.0926      
3076.0000      2.4188302      2644.6861      0.10372029     4317.8546      2444.0029      
3076.5000      2.419131       3117.2713      0.049719874    5006.7749      2533.8388      
3077.0000      2.4194319      3180.7422      0.039398266    5106.2918      2549.0998      
3077.5000      2.4197327      2559.6846      0.091100465    4240.2758      2453.1442      
3078.0000      2.4200335      2445.0569      0.079420581    4126.9879      2457.5641      
3078.5000      2.4203344      2372.7175      0.061479613    4090.0543      2470.4158      
3079.0000      2.4206352      2323.9944      0.066880348    4018.8204      2461.6297      
3079.5000      2.4209361      2268.3334      0.066279712    3955.4602      2457.7531      
3080.0000      2.4212369      2308.5935      0.069659546    3990.9541      2456.9434      
3080.5000      2.4215378      2300.978       0.10326094     3900.3461      2421.6132      
3081.0000      2.4218386      2340.4125      0.12687954     3895.8833      2396.1654      
3081.5000      2.4221394      2261.4649      0.14680068     3763.5835      2368.2971      
3082.0000      2.4224403      2179.0912      0.12628001     3706.1653      2386.981       
3082.5000      2.4227411      2232.4485      0.094239674    3838.4655      2425.6771      
3083.0000      2.423042       2320.3752      0.087479905    3959.6293      2440.0218      
3083.5000      2.4233428      2342.9406      0.074440309    4020.8678      2455.153       
3084.0000      2.4236437      2482.5133      0.030679932    4319.606       2509.5686      
3084.5000      2.4239445      2505.3233      0.033879858    4409.7285      2527.9084      
3085.0000      2.4242453      2467.1709      0.031539844    4377.1026      2527.2204      
3085.5000      2.4245462      2391.9716      0.033159668    4288.0106      2519.9923      
3086.0000      2.424847       2356.0313      0.035399976    4239.9109      2515.2292      
